[
  {
    "storeAddress": "2133 Shattuck Ave., Berkeley, CA 94704",
    "city": "Berkeley",
    "expState": "California",
    "hours": "Mon - Sat (10 AM - 6:00 PM, closed 12:30 - 1:00)",
    "storeName": "Berkeley",
    "phone": 5105091877,
    "state": "CA",
    "stateMainRegion": "Northern CA", 
    "coordinates": "37.87093209273651, -122.26803423245651"
  },
  {
    "storeAddress": "610 Main St, Pleasanton, CA 94566",
    "city": "Pleasanton",
    "expState": "California",
    "hours": "Mon - Fri (10 AM - 6PM, closed 2 - 2:30)",
    "storeName": "Pleasanton",
    "phone": 9259650137,
    "state": "CA",
    "stateMainRegion": "Northern CA",
    "coordinates": "37.66181336459512, -121.87481915840169"
  },
  {
    "storeAddress": "3226 E Broadway,Long Beach, CA 90803",
    "city": "Long Beach",
    "expState": "California",
    "hours": "Mon - Fri (8:30 AM - 5PM, closed 12 - 12:30)",
    "storeName": "Long Beach",
    "phone": 5627866999,
    "state": "CA",
    "stateMainRegion": "Southern CA",
    "coordinates": "33.7647529402399, -118.1540420846536"
  },
  {
    "storeAddress": "10200 Corrales Rd NW, Suite C-3, Albuquerque, NM 87114",
    "city": "Albuquerque",
    "expState": "New Mexico",
    "hours": "Mon - Fri (9:30 AM - 6:00PM, closed 12:30 - 1:00)",
    "storeName": "Albuquerque",
    "phone": 5053080550,
    "state": "NM",
    "stateMainRegion": "New Mexico",
    "coordinates": "35.20362203250498, -106.64637187116513"
  },
  {
    "storeAddress": "9527 Folsom Blvd suite c, Sacramento, CA 95827",
    "city": "Sacramento",
    "expState": "California",
    "hours": "Mon - Fri (8:30 AM - 5 PM, closed 1 - 1:30)",
    "storeName": "Sacramento",
    "phone": 9162734793,
    "state": "CA",
    "stateMainRegion": "Northern CA",
    "coordinates": "38.57103881215388, -121.34150954673055"
  },
  {
    "storeAddress": "740 Front St, Santa Cruz, CA 95060",
    "city": "Santa Cruz",
    "expState": "California",
    "hours": "Mon - Fri (10 AM - 6PM, closed 2:00 - 2:30)",
    "storeName": "Santa Cruz",
    "phone": 8313250277,
    "state": "CA",
    "stateMainRegion": "Northern CA",
    "coordinates": "36.97566509581197, -122.02509571793888"
  },
  {
    "storeAddress": "100 W El Camino Real, Mountain View, CA 94040",
    "city": "Mountain View",
    "expState": "California",
    "hours": "Mon - Fri (10 AM - 6 PM, closed 2:00 - 2:30)",
    "storeName": "Mountain View",
    "phone": 6509654252,
    "state": "CA",
    "stateMainRegion": "Northern CA",
    "coordinates": "37.382770375361964, -122.07653610073864"
  },
  {
    "storeAddress": "860 S Winchester Blvd, San Jose, CA 95128",
    "city": "San Jose",
    "expState": "California",
    "hours": "Mon - Fri (8:30 AM - 5PM, closed 12:30 - 1:00)",
    "storeName": "San Jose - Winchester",
    "phone": 4085578807,
    "state": "CA",
    "stateMainRegion": "Northern CA",
    "coordinates": "37.312012300940914, -121.9495697430699"
  },
  {
    "storeAddress": "43170 Christy St, Fremont, CA 94538",
    "city": "Fremont",
    "expState": "California",
    "hours": "Mon - Fri (8:30 AM - 5 PM, closed 2:00 - 2:30)",
    "storeName": "Fremont",
    "phone": 5104174153,
    "state": "CA",
    "stateMainRegion": "Northern CA",
    "coordinates": "37.50685685776394, -121.97110361792446"
  },
  {
    "storeAddress": "18 Western Ave, Petaluma, CA 94952",
    "city": "Petaluma",
    "expState": "California",
    "hours": "Mon - Fri (9 AM - 5:30 PM, closed 1:00 - 1:30)",
    "storeName": "Petaluma",
    "phone": 7077220227,
    "state": "CA",
    "stateMainRegion": "Northern CA",
    "coordinates": "38.234126719597946, -122.64100531790449"
  },
  {
    "storeAddress": "118 W 25th Ave, San Mateo, CA 94403",
    "city": "San Mateo",
    "expState": "California",
    "hours": "Mon - Fri (10:00 AM - 6 PM, closed 1:00 - 1:30)",
    "storeName": "San Mateo",
    "phone": 6509648500,
    "state": "CA",
    "stateMainRegion": "Northern CA",
    "coordinates": "37.54408274060515, -122.30733448724037"
  },
  {
    "storeAddress": "2009 W Bullard Ave, Fresno, CA 93711, USA",
    "city": "Fresno",
    "expState": "California",
    "hours": "Mon - Sat (9:30 AM - 6:00 PM, closed 1:30 - 2:00)",
    "storeName": "Fresno",
    "phone": 5594156236,
    "state": "CA",
    "stateMainRegion": "Central Valley",
    "coordinates": "36.82216944633103, -119.82677174494269"
  },
  {
    "storeAddress": "560 Las Posas Rd, Camarillo, CA 93010",
    "city": "Camarillo",
    "expState": "California",
    "hours": "Mon - Sun (9:30 AM - 6 PM, closed 2:00 - 2:30)",
    "storeName": "Camarillo",
    "phone": 8053224378,
    "state": "CA",
    "stateMainRegion": "Southern CA",
    "coordinates": "34.222765525000575, -119.06854961616177"
  },
  {
    "storeAddress": "17752 SKY PARK CIR IRVINE CA 92614",
    "city": "Irvine",
    "expState": "California",
    "hours": "Mon - Fri (7:30 AM - 4 PM, closed 11:30 - 12:00)",
    "storeName": "Irvine",
    "phone": 9494044272,
    "state": "CA",
    "stateMainRegion": "Southern CA",
    "coordinates": "33.690418946661815, -117.8555760698494"
  },
  {
    "storeAddress": "1301 W Parker Rd STE 106, Plano, TX 75023",
    "city": "Plano",
    "expState": "Texas",
    "hours": "Mon - Sun (9:30 AM - 6 PM, closed 12:30 - 1:00)",
    "storeName": "Plano",
    "phone": 4692098747,
    "state": "TX",
    "stateMainRegion": "Texas",
    "coordinates": "33.0418046605628, -96.71806778798079"
  },
  {
    "storeAddress": "1751 Eldorado Pkwy, McKinney, TX 75069",
    "city": "McKinney",
    "expState": "Texas",
    "hours": "Mon - Sun (9:30 AM - 6 PM, closed 12:30 - 1:00)",
    "storeName": "Mc Kinney",
    "phone": 2143075109,
    "state": "TX",
    "stateMainRegion": "Texas",
    "coordinates": "33.17263702786852, -96.63414790900823"
  },
  {
    "storeAddress": "Fannin South Professional Building, 7707 Fannin St, Houston, TX 77054",
    "city": "Houston",
    "expState": "Texas",
    "hours": "Mon - Fri (9:30 AM - 6 PM, closed 1:30 - 2:00)",
    "storeName": "Houston",
    "phone": 8324151129,
    "state": "TX",
    "stateMainRegion": "Texas",
    "coordinates": "29.690639961914105, -95.40219943160737"
  },
  {
    "storeAddress": "7777 Warren Pkwy Suit 100, Frisco, TX 75034",
    "city": "Frisco",
    "expState": "Texas",
    "hours": "Mon - Sun (9:30 AM - 6 PM, closed 12:30 - 1:00)",
    "storeName": "Frisco",
    "phone": 4693053145,
    "state": "TX",
    "stateMainRegion": "Texas",
    "coordinates": "33.10644113812778, -96.81875034317675"
  },
  {
    "storeAddress": "3972 W Cerritos Ave, Los Alamitos, CA 90720",
    "city": "Los Alamitos",
    "expState": "California",
    "hours": "Mon - Sat (8:00 AM - 4:30 PM, closed 12:00 - 12:30) & Sat (8:30 AM - 5 PM, closed 12:00 - 12:30)",
    "storeName": "Los Alamitos",
    "phone": 5624754717,
    "state": "CA",
    "stateMainRegion": "Southern CA",
    "coordinates": "33.810157691108145, -118.06373450083066"
  },
  {
    "storeAddress": "712 Broadway, Massapequa, NY 11758",
    "city": "Massapequa",
    "expState": "New York",
    "hours": "Mon - Fri (10:00 AM - 6 PM, closed 2 - 2:30)",
    "storeName": "Massapequa",
    "phone": 5164640256,
    "state": "NY",
    "stateMainRegion": "New York",
    "coordinates": "40.692345863711374, -73.46496264666969"
  },
  {
    "storeAddress": "5525 Philadelphia St,Unit C, Chino, CA 91710",
    "city": "Chino",
    "expState": "California",
    "hours": "Mon - Sat (8:00 AM - 4:30 PM, closed 12:00 - 12:30)",
    "storeName": "Chino",
    "phone": 9094608356,
    "state": "CA",
    "stateMainRegion": "Southern CA",
    "coordinates": "34.03203583332265, -117.68293972966055"
  },
  {
    "storeAddress": "2451 Lakeside Pkwy #140, Flower Mound, TX 75022",
    "city": "Flower Mound",
    "expState": "Texas",
    "hours": "Mon - Sat (9:30 AM - 6 PM, closed 12:30 - 1)",
    "storeName": "Flower Mound",
    "phone": 4692006138,
    "state": "TX",
    "stateMainRegion": "Texas",
    "coordinates": "32.993993545189305, -97.06509391619167"
  },
  {
    "storeAddress": "5517 Broadway St, Pearland, TX 77581",
    "city": "Pearland",
    "expState": "Texas",
    "hours": "Mon - Fri (8:30 AM - 5 PM, closed 12:30 - 1)",
    "storeName": "Pearland",
    "phone": 2816121819,
    "state": "TX",
    "stateMainRegion": "Texas",
    "coordinates": "29.560487754101104, -95.30375040462243"
  },
  {
    "storeAddress": "1000 Jefferson St, Hoboken, NJ 07030",
    "city": "Hoboken",
    "expState": "New Jersey",
    "hours": "Mon - Fri (10:00 AM - 6 PM, closed 1:30 - 2:00)",
    "storeName": "Hoboken",
    "phone": 5513070157,
    "state": "NJ",
    "stateMainRegion": "New Jersey",
    "coordinates": "40.75055443701972, -74.03492904666798"
  },
  {
    "storeAddress": "10774 Washington Blvd, Culver city, CA 90232",
    "city": "Culver City",
    "expState": "California",
    "hours": "Mon - Fri (8:30 AM - 5 PM, closed 1:00 - 1:30)",
    "storeName": "Culver City",
    "phone": 3102952275,
    "state": "CA",
    "stateMainRegion": "Southern CA",
    "coordinates": "34.01539955422834, -118.40697914685008"
  },
  {
    "storeAddress": "1420 Schertz Pkwy Suite 140, Schertz, TX 78154",
    "city": "Schertz",
    "expState": "Texas",
    "hours": "Mon - Tues and Thurs - Sat(9:30 AM - 6 PM, closed 12:30 - 1:00)",
    "storeName": "Schertz",
    "phone": 2107299477,
    "state": "TX",
    "stateMainRegion": "Texas",
    "coordinates": "29.56652597882277, -98.27061916044539"
  },
  {
    "storeAddress": "455 Atlantic Ave, East Rockaway, NY 11518",
    "city": "East Rockaway",
    "expState": "New York",
    "hours": "Mon - Fri (10:00 AM - 6 PM, closed 1:30 - 2:00  PM)",
    "storeName": "East Rockaway",
    "phone": 9177738813,
    "state": "NY",
    "stateMainRegion": "New York",
    "coordinates": "40.6432895471601, -73.66562128715272"
  },
  {
    "storeAddress": "4209 W Waco Dr, Waco, TX 76710",
    "city": "Waco",
    "expState": "Texas",
    "hours": "Mon - Sat (9:30 AM - 6:00 PM, closed 1:00 PM - 1:30 PM)",
    "storeName": "Waco",
    "phone": 2542275748,
    "state": "TX",
    "stateMainRegion": "Texas",
    "coordinates": "31.530101272193512, -97.16946633156714"
  },
  {
    "storeAddress": "5600 Brainerd Rd C24, Chattanooga, TN 37411",
    "city": "Chattanooga",
    "expState": "Tennessee",
    "hours": "Mon - Sat (9:30 AM - 6 PM, closed 12:30 PM - 1 PM)",
    "storeName": "Chattanooga",
    "phone": 4234056315,
    "state": "TN",
    "stateMainRegion": "Tennessee",
    "coordinates": "35.00907024929226, -85.21431081798993"
  },
  {
    "storeAddress": "9550 W Van Buren St #20, Tolleson, AZ 85353",
    "city": "Tolleson",
    "expState": "Arizona",
    "hours": "Mon- Sat (8:30 AM - 5 PM, closed 1:00 - 1:30  PM)",
    "storeName": "Tolleson",
    "phone": 6232675040,
    "state": "AZ",
    "stateMainRegion": "Arizona",
    "coordinates": "33.45109904037734, -112.26569453506808"
  },
  {
    "storeAddress": "1834 E Baseline Rd STE 107, Tempe, AZ 85283",
    "city": "Tempe",
    "expState": "Arizona",
    "hours": "Mon- Sat (8:30 AM - 5 PM, closed 12:00 - 12:30 PM)",
    "storeName": "Tempe",
    "phone": 6028302430,
    "state": "AZ",
    "stateMainRegion": "Arizona",
    "coordinates": "33.378962955878386, -111.90598727385337"
  },
  {
    "storeAddress": "857 Willamette St, Eugene, OR 97401",
    "city": "Eugene",
    "expState": "Oregon",
    "hours": "Mon - Sat (9:00 AM - 5:30 PM, closed 1:30 - 2:00)",
    "storeName": "Eugene",
    "phone": 5415124200,
    "state": "OR",
    "stateMainRegion": "Oregon",
    "coordinates": "44.05057718210782, -123.09263727540204"
  },
  {
    "storeAddress": "2628 Pioneer Rd b, St. George, UT 84790",
    "city": "St George",
    "expState": "Utah",
    "hours": "Mon - Fri (8:30 AM - 5 PM, closed 12:30 PM - 1 PM)",
    "storeName": "St George",
    "phone": 4353197497,
    "state": "Ut",
    "stateMainRegion": "Utah",
    "coordinates": "37.06348754292357, -113.58476756026572"
  },
  {
    "storeAddress": "234 E College Ave Suite 112, State College, PA 16801",
    "city": "State College",
    "expState": "Pennsylvania",
    "hours": "Mon - Fri (9:30 AM - 6 PM, closed 1:00 PM - 1:30 PM)",
    "storeName": "State College",
    "phone": 8147424247,
    "state": "PN",
    "stateMainRegion": "Pennsylvania",
    "coordinates": "40.796073504408874, -77.85915160674665"
  },
  {
    "storeAddress": "1245 E Northern Ave, Phoenix, AZ 85020",
    "city": "Phoenix",
    "expState": "Arizona",
    "hours": "Mon- Sun (8:30 AM - 5 PM, closed 12:00 - 12:30  PM)",
    "storeName": "Phoenix",
    "phone": 4808471507,
    "state": "AZ",
    "stateMainRegion": "Arizona",
    "coordinates": "33.552906796583855, -112.05488405850757"
  }
]
